City_ID,City,Country,Lat,Lng,Max Temp,Humidity,Cloudiness,Wind Speed,Current Description,Date
0,New Norfolk,AU,-42.7826,147.0587,64.0,62,69,1.99,broken clouds,2021-04-04 23:15:11
1,El Retorno,CO,2.3302,-72.6276,75.15,92,66,2.82,broken clouds,2021-04-04 23:15:12
2,Dandong,CN,40.1292,124.3947,45.28,39,4,2.17,clear sky,2021-04-04 23:15:12
3,Hamilton,US,39.1834,-84.5333,73.4,35,1,5.75,clear sky,2021-04-04 23:15:13
4,Kabanjahe,ID,3.1001,98.4908,77.0,100,40,3.44,haze,2021-04-04 23:15:13
5,Cabo San Lucas,MX,22.8909,-109.9124,91.4,17,1,23.02,clear sky,2021-04-04 23:15:14
6,Kruisfontein,ZA,-34.0033,24.7314,68.0,79,98,1.01,overcast clouds,2021-04-04 23:15:14
7,Arraial Do Cabo,BR,-22.9661,-42.0278,75.67,75,74,13.15,broken clouds,2021-04-04 23:15:15
8,Nanortalik,GL,60.1432,-45.2371,34.29,87,18,7.47,few clouds,2021-04-04 23:15:16
9,Roswell,US,34.0232,-84.3616,70.0,23,1,5.75,clear sky,2021-04-04 23:10:35
10,Albany,US,42.6001,-73.9662,57.99,32,40,17.27,scattered clouds,2021-04-04 23:11:35
11,Jamestown,US,42.097,-79.2353,50.0,40,1,8.05,clear sky,2021-04-04 23:11:39
12,Castro,BR,-24.7911,-50.0119,58.68,95,33,6.87,scattered clouds,2021-04-04 23:15:17
13,Takoradi,GH,4.8845,-1.7554,79.57,87,43,6.8,scattered clouds,2021-04-04 23:15:17
14,Punta Arenas,CL,-53.15,-70.9167,42.8,75,0,20.71,clear sky,2021-04-04 23:15:17
15,Aswan,EG,24.0934,32.907,67.82,16,0,7.0,clear sky,2021-04-04 23:15:18
16,Sitka,US,57.0531,-135.33,39.2,93,90,10.36,light rain,2021-04-04 23:15:18
17,Ippy,CF,6.2679,21.2247,76.24,28,8,2.39,clear sky,2021-04-04 23:15:18
18,Tazovskiy,RU,67.4667,78.7,32.25,98,100,10.09,light snow,2021-04-04 23:15:19
19,Yeppoon,AU,-23.1333,150.7333,71.6,94,90,11.5,overcast clouds,2021-04-04 23:15:20
20,Chokurdakh,RU,70.6333,147.9167,-16.13,97,50,4.12,scattered clouds,2021-04-04 23:15:20
21,High Prairie,CA,55.4334,-116.4858,42.8,52,59,18.41,broken clouds,2021-04-04 23:15:21
22,Tuktoyaktuk,CA,69.4541,-133.0374,5.0,85,90,20.71,snow,2021-04-04 23:15:21
23,Port Augusta,AU,-32.5,137.7667,73.99,83,0,13.8,clear sky,2021-04-04 23:15:22
24,Nikolskoye,RU,59.7035,30.7861,39.0,75,0,11.18,clear sky,2021-04-04 23:15:22
25,Twin Falls,US,42.3505,-114.6445,71.6,15,1,4.61,clear sky,2021-04-04 23:15:23
26,Los Llanos De Aridane,ES,28.6585,-17.9182,66.2,63,90,4.61,overcast clouds,2021-04-04 23:15:23
27,Vardo,NO,70.3705,31.1107,36.34,88,100,18.01,overcast clouds,2021-04-04 23:15:24
28,Andrelandia,BR,-21.7397,-44.3092,60.57,94,98,7.14,overcast clouds,2021-04-04 23:15:24
29,Cidreira,BR,-30.1811,-50.2056,72.82,76,5,18.45,clear sky,2021-04-04 23:15:25
30,Naples,IT,40.8333,14.25,50.0,40,0,10.36,clear sky,2021-04-04 23:13:27
31,Khatanga,RU,71.9667,102.5,-9.9,85,11,10.56,few clouds,2021-04-04 23:15:25
32,Rikitea,PF,-23.1203,-134.9692,77.79,66,51,18.3,broken clouds,2021-04-04 23:13:25
33,Bluff,NZ,-46.6,168.3333,55.99,73,93,18.99,overcast clouds,2021-04-04 23:15:26
34,Trincomalee,LK,8.5711,81.2335,77.11,86,86,7.18,overcast clouds,2021-04-04 23:15:27
35,Luderitz,NA,-26.6481,15.1594,69.55,66,0,15.21,clear sky,2021-04-04 23:15:27
36,Salalah,OM,17.0151,54.0924,80.6,78,0,3.44,clear sky,2021-04-04 23:15:27
37,Vaini,TO,-21.2,-175.2,80.6,74,20,14.97,few clouds,2021-04-04 23:15:28
38,Mahdasht,IR,35.7299,50.8111,41.0,60,0,11.5,clear sky,2021-04-04 23:15:28
39,Teguldet,RU,57.3064,88.1667,25.84,99,100,3.74,overcast clouds,2021-04-04 23:15:29
40,Hambantota,LK,6.1241,81.1185,76.24,81,99,6.96,overcast clouds,2021-04-04 23:15:30
41,Victoria,HK,22.2855,114.1577,72.0,89,100,1.99,overcast clouds,2021-04-04 23:14:12
42,Victor Harbor,AU,-35.5667,138.6167,63.0,76,24,11.72,few clouds,2021-04-04 23:15:30
43,Pella,RU,59.7775,30.8181,39.0,75,0,11.18,clear sky,2021-04-04 23:15:31
44,Gornyy,RU,55.1153,83.9059,27.0,70,76,5.06,broken clouds,2021-04-04 23:15:31
45,Atuona,PF,-9.8,-139.0333,80.56,79,75,8.84,broken clouds,2021-04-04 23:15:32
46,Hilo,US,19.7297,-155.09,75.2,73,90,9.33,light rain,2021-04-04 23:14:32
47,Sistranda,NO,63.7256,8.834,30.2,74,40,27.63,snow,2021-04-04 23:15:33
48,Mataura,NZ,-46.1927,168.8643,55.99,76,99,21.99,overcast clouds,2021-04-04 23:13:55
49,Kaitangata,NZ,-46.2817,169.8464,51.42,82,44,16.67,scattered clouds,2021-04-04 23:15:33
50,Nunoa,PE,-14.48,-70.6411,43.07,82,100,1.95,moderate rain,2021-04-04 23:15:34
51,Hobart,AU,-42.8794,147.3294,64.0,59,20,10.36,few clouds,2021-04-04 23:15:05
52,Kapaa,US,22.0752,-159.319,77.0,61,90,14.97,overcast clouds,2021-04-04 23:15:34
53,Caxito,AO,-8.5785,13.6643,78.8,83,20,5.75,few clouds,2021-04-04 23:15:35
54,Gimli,CA,50.6336,-96.9907,46.4,34,92,16.11,overcast clouds,2021-04-04 23:15:36
55,Alofi,NU,-19.0595,-169.9187,82.4,78,100,8.05,moderate rain,2021-04-04 23:15:36
56,Tuatapere,NZ,-46.1333,167.6833,55.99,73,98,18.99,overcast clouds,2021-04-04 23:15:37
57,Rumford,US,44.5537,-70.5509,48.0,42,1,10.36,clear sky,2021-04-04 23:15:08
58,Palmer,US,42.1584,-72.3287,53.6,26,20,16.11,few clouds,2021-04-04 23:15:37
59,Dikson,RU,73.5069,80.5464,3.47,92,99,6.26,overcast clouds,2021-04-04 23:15:38
60,Puerto Ayora,EC,-0.7393,-90.3518,84.2,70,20,16.11,few clouds,2021-04-04 23:15:39
61,Klaksvik,FO,62.2266,-6.589,26.6,54,75,41.43,light snow,2021-04-04 23:15:39
62,Husavik,IS,66.0449,-17.3389,17.6,62,90,10.36,light snow,2021-04-04 23:15:40
63,Pimenta Bueno,BR,-11.6725,-61.1936,74.35,96,100,0.67,moderate rain,2021-04-04 23:15:40
64,Lavrentiya,RU,65.5833,-171.0,3.18,72,20,6.42,few clouds,2021-04-04 23:15:41
65,Amahai,ID,-3.3333,128.9167,81.03,77,84,3.89,broken clouds,2021-04-04 23:15:41
66,Tiksi,RU,71.6872,128.8694,-13.07,99,100,3.83,overcast clouds,2021-04-04 23:15:42
67,Agua Preta,BR,-8.7075,-35.5306,74.26,91,28,3.44,scattered clouds,2021-04-04 23:15:43
68,Qaanaaq,GL,77.484,-69.3632,-13.05,60,26,7.14,scattered clouds,2021-04-04 23:15:43
69,Nhulunbuy,AU,-12.2333,136.7667,84.2,70,90,1.14,overcast clouds,2021-04-04 23:15:44
70,Sumoto,JP,34.35,134.9,55.0,76,75,21.85,broken clouds,2021-04-04 23:15:44
71,Luang Prabang,LA,19.8856,102.1347,70.75,97,100,1.01,overcast clouds,2021-04-04 23:15:45
72,Port Alfred,ZA,-33.5906,26.891,68.79,78,71,11.95,broken clouds,2021-04-04 23:15:45
73,Esperance,AU,-33.8667,121.9,62.6,88,40,10.36,scattered clouds,2021-04-04 23:15:45
74,Ushuaia,AR,-54.8,-68.3,42.8,81,75,5.75,light intensity drizzle,2021-04-04 23:14:35
75,Sungaipenuh,ID,-2.0833,101.3833,62.83,91,96,1.54,overcast clouds,2021-04-04 23:15:46
76,Araouane,ML,18.9048,-3.5265,83.01,7,68,2.19,broken clouds,2021-04-04 23:15:46
77,Agadez,NE,19.75,10.25,73.69,10,81,5.68,broken clouds,2021-04-04 23:15:47
78,Busselton,AU,-33.65,115.3333,59.0,95,11,1.01,few clouds,2021-04-04 23:15:47
79,San Patricio,US,28.017,-97.5169,77.0,53,1,18.41,clear sky,2021-04-04 23:15:48
80,Mugur-Aksy,RU,50.35,90.5,15.39,49,0,5.08,clear sky,2021-04-04 23:15:48
81,Kavaratti,IN,10.5669,72.642,82.04,70,55,13.2,broken clouds,2021-04-04 23:15:48
82,Hermanus,ZA,-34.4187,19.2345,64.0,90,98,1.01,overcast clouds,2021-04-04 23:13:14
83,Jieshi,CN,22.8134,115.8257,73.0,79,100,20.0,overcast clouds,2021-04-04 23:15:49
84,Kodiak,US,57.79,-152.4072,50.0,53,40,12.66,scattered clouds,2021-04-04 23:15:49
85,Axim,GH,4.8699,-2.2405,79.18,88,42,6.06,light rain,2021-04-04 23:15:50
86,Honiara,SB,-9.4333,159.95,86.11,69,31,2.68,scattered clouds,2021-04-04 23:15:50
87,Port Elizabeth,ZA,-33.918,25.5701,68.0,77,90,10.36,overcast clouds,2021-04-04 23:12:26
88,Marinette,US,45.1,-87.6307,55.4,43,1,9.22,clear sky,2021-04-04 23:15:51
89,Chuy,UY,-33.6971,-53.4616,68.14,87,10,11.59,clear sky,2021-04-04 23:15:52
90,Leningradskiy,RU,69.3833,178.4167,5.16,85,99,3.51,overcast clouds,2021-04-04 23:15:53
91,Tasiilaq,GL,65.6145,-37.6368,19.4,86,90,21.85,light snow,2021-04-04 23:15:53
92,Saint-Philippe,RE,-21.3585,55.7679,78.8,73,0,4.61,clear sky,2021-04-04 23:15:53
93,Sturgeon Falls,CA,46.3646,-79.9326,51.8,32,1,8.05,clear sky,2021-04-04 23:15:54
94,Geraldton,AU,-28.7667,114.6,68.0,88,56,5.75,broken clouds,2021-04-04 23:15:55
95,Hithadhoo,MV,-0.6,73.0833,83.05,76,60,17.96,broken clouds,2021-04-04 23:15:45
96,Cape Town,ZA,-33.9258,18.4232,64.99,88,0,10.36,clear sky,2021-04-04 23:13:39
97,Arkhangelsk,RU,64.5401,40.5433,33.8,93,90,6.71,light rain and snow,2021-04-04 23:15:55
98,San Quintin,MX,30.4833,-115.95,67.46,59,39,18.07,scattered clouds,2021-04-04 23:11:30
99,Lampang,TH,18.3333,99.5,75.99,94,75,2.77,moderate rain,2021-04-04 23:15:56
100,Saint George,US,37.1041,-113.5841,88.0,7,1,9.22,clear sky,2021-04-04 23:12:45
101,Georgetown,MY,5.4112,100.3354,82.0,89,20,4.88,few clouds,2021-04-04 23:15:10
102,Lorengau,PG,-2.0226,147.2712,81.34,80,100,4.43,overcast clouds,2021-04-04 23:15:57
103,Lebedinyy,RU,58.5167,125.5167,8.64,93,100,4.21,overcast clouds,2021-04-04 23:15:57
104,Dengzhou,CN,37.8086,120.7508,45.68,56,1,8.79,clear sky,2021-04-04 23:15:58
105,Avarua,CK,-21.2078,-159.775,86.0,74,40,19.57,scattered clouds,2021-04-04 23:15:58
106,Thompson,CA,55.7435,-97.8558,44.6,26,75,6.91,broken clouds,2021-04-04 23:15:59
107,East London,ZA,-33.0153,27.9116,67.05,70,8,12.5,clear sky,2021-04-04 23:12:17
108,Linxia,CN,35.6003,103.2064,38.12,78,47,3.29,scattered clouds,2021-04-04 23:16:00
109,Inverell,AU,-29.7833,151.1167,72.0,72,100,4.0,overcast clouds,2021-04-04 23:16:00
110,Avera,US,33.194,-82.5271,71.6,20,1,5.75,clear sky,2021-04-04 23:16:01
111,La Ronge,CA,55.1001,-105.2842,44.6,45,100,13.8,overcast clouds,2021-04-04 23:16:01
112,Susehri,TR,40.1644,38.0867,47.55,69,84,6.31,broken clouds,2021-04-04 23:16:02
113,Vazante,BR,-17.9869,-46.9078,72.52,75,64,2.01,heavy intensity rain,2021-04-04 23:11:15
114,Lebu,CL,-37.6167,-73.65,55.69,83,31,10.76,scattered clouds,2021-04-04 23:16:02
115,Tulagi,SB,-9.0996,160.1476,82.96,76,57,10.22,broken clouds,2021-04-04 23:16:02
116,Trinidad,BO,-14.8333,-64.9,80.6,89,75,3.47,broken clouds,2021-04-04 23:16:03
117,Lodeynoye Pole,RU,60.726,33.5531,34.56,90,100,11.32,overcast clouds,2021-04-04 23:16:03
118,Kingman,US,35.1894,-114.053,87.8,4,1,19.57,clear sky,2021-04-04 23:16:04
119,Hokitika,NZ,-42.7167,170.9667,64.6,83,55,10.45,broken clouds,2021-04-04 23:16:04
120,Barrow,US,71.2906,-156.7887,-2.2,65,1,14.97,clear sky,2021-04-04 23:15:41
121,Bathsheba,BB,13.2167,-59.5167,78.8,65,40,12.66,scattered clouds,2021-04-04 23:16:05
122,Adilabad,IN,19.6667,78.5333,83.53,17,1,2.64,clear sky,2021-04-04 23:16:05
123,Fukue,JP,32.6881,128.8419,53.6,62,20,27.63,few clouds,2021-04-04 23:16:06
124,Yellowknife,CA,62.456,-114.3525,26.01,42,1,5.75,clear sky,2021-04-04 23:14:14
125,Ribeira Grande,PT,38.5167,-28.7,61.12,80,70,15.5,broken clouds,2021-04-04 23:16:06
126,Iqaluit,CA,63.7506,-68.5145,10.4,79,75,13.8,broken clouds,2021-04-04 23:16:04
127,Gizo,SB,-8.103,156.8419,84.33,71,89,5.97,light rain,2021-04-04 23:16:07
128,Constitucion,CL,-35.3333,-72.4167,55.67,90,11,5.08,few clouds,2021-04-04 23:16:07
129,Bronkhorstspruit,ZA,-25.8102,28.7425,57.99,94,0,4.43,clear sky,2021-04-04 23:16:07
130,Ghanzi,BW,-21.5667,21.7833,72.34,44,18,5.03,few clouds,2021-04-04 23:16:08
131,Mar Del Plata,AR,-38.0023,-57.5575,69.01,88,40,9.22,scattered clouds,2021-04-04 23:15:51
132,Cordoba,AR,-31.4135,-64.1811,73.0,77,0,6.91,clear sky,2021-04-04 23:13:45
133,Hasaki,JP,35.7333,140.8333,61.0,100,75,6.91,mist,2021-04-04 23:16:06
134,Dubbo,AU,-32.25,148.6167,66.2,72,2,9.22,clear sky,2021-04-04 23:14:29
135,Solano,US,38.2333,-121.9511,69.01,40,20,9.22,few clouds,2021-04-04 23:16:08
136,Yaan,NG,7.3833,8.5667,88.2,32,84,4.34,broken clouds,2021-04-04 23:16:09
137,Sulangan,PH,11.1373,123.7228,81.86,67,95,11.36,overcast clouds,2021-04-04 23:16:09
138,Chitipa,MW,-9.7024,33.2697,61.07,98,61,2.28,broken clouds,2021-04-04 23:16:09
139,Shuangcheng,CN,45.35,126.2833,44.01,48,0,8.95,clear sky,2021-04-04 23:16:10
140,Taltal,CL,-25.4,-70.4833,64.94,80,20,0.92,few clouds,2021-04-04 23:16:11
141,Tamandare,BR,-8.7597,-35.1047,78.85,80,21,7.67,few clouds,2021-04-04 23:16:11
142,Griffith,US,41.5284,-87.4237,75.2,31,1,12.66,clear sky,2021-04-04 23:16:11
143,Kilis,TR,36.7161,37.115,48.2,71,0,4.65,clear sky,2021-04-04 23:16:12
144,Alice Springs,AU,-23.7,133.8833,64.4,55,0,5.75,clear sky,2021-04-04 23:12:14
145,Cockburn Town,TC,21.4612,-71.1419,74.14,73,98,25.01,overcast clouds,2021-04-04 23:16:12
146,Tocopilla,CL,-22.092,-70.1979,69.26,74,81,5.75,broken clouds,2021-04-04 23:11:53
147,Guerrero Negro,MX,27.9769,-114.0611,67.24,62,2,19.6,clear sky,2021-04-04 23:13:49
148,Kesinga,IN,20.2,83.2333,77.29,52,0,1.63,clear sky,2021-04-04 23:16:13
149,Pacasmayo,PE,-7.4006,-79.5714,73.53,72,28,12.68,scattered clouds,2021-04-04 23:16:13
150,Yulara,AU,-25.2406,130.9889,71.6,35,0,9.22,clear sky,2021-04-04 23:16:13
151,Carnarvon,AU,-24.8667,113.6333,75.2,83,12,14.97,few clouds,2021-04-04 23:16:14
152,Buin,CL,-33.7333,-70.75,68.0,67,40,11.5,scattered clouds,2021-04-04 23:16:14
153,Olympia,US,47.0379,-122.9007,54.0,32,90,13.8,overcast clouds,2021-04-04 23:11:28
154,Tiarei,PF,-17.5333,-149.3333,86.0,66,20,3.44,few clouds,2021-04-04 23:16:14
155,Rudbar,AF,30.15,62.6,67.23,23,100,12.41,overcast clouds,2021-04-04 23:16:15
156,Biloela,AU,-24.4167,150.5,69.48,90,100,11.25,light rain,2021-04-04 23:16:16
157,Slave Lake,CA,55.2834,-114.769,41.0,70,75,4.61,broken clouds,2021-04-04 23:15:19
158,Buala,SB,-8.145,159.5921,84.49,73,87,4.18,overcast clouds,2021-04-04 23:16:16
159,Longyearbyen,SJ,78.2186,15.6401,23.0,68,75,31.07,broken clouds,2021-04-04 23:16:17
160,Morondava,MG,-20.2833,44.2833,75.67,84,37,8.16,scattered clouds,2021-04-04 23:16:17
161,Lhokseumawe,ID,5.1801,97.1507,77.88,85,99,3.78,overcast clouds,2021-04-04 23:11:37
162,Codrington,AU,-38.2667,141.9667,61.3,58,80,9.15,broken clouds,2021-04-04 23:16:11
163,Abashiri,JP,44.0213,144.2697,37.4,70,75,10.36,broken clouds,2021-04-04 23:16:18
164,Tabuk,PH,17.4189,121.4443,74.77,81,40,3.33,scattered clouds,2021-04-04 23:16:18
165,Blythe,US,33.6103,-114.5964,98.01,3,30,4.0,scattered clouds,2021-04-04 23:16:19
166,Grand Island,US,40.925,-98.342,87.8,19,1,14.97,clear sky,2021-04-04 23:15:35
167,Saint-Paul,RE,-21.0096,55.2707,78.8,78,10,12.66,clear sky,2021-04-04 23:16:19
168,Pilikwe,BW,-22.799,27.1938,63.91,78,0,4.61,clear sky,2021-04-04 23:16:20
169,Clovis,US,36.8252,-119.7029,75.99,35,75,4.61,broken clouds,2021-04-04 23:15:17
170,Talnakh,RU,69.4865,88.3972,4.33,70,100,11.59,overcast clouds,2021-04-04 23:16:21
171,Tarija,BO,-21.5355,-64.7296,66.2,77,75,5.75,broken clouds,2021-04-04 23:13:25
172,Mucurapo,TT,10.6667,-61.5333,82.0,78,20,6.91,few clouds,2021-04-04 23:16:21
173,Ust-Nera,RU,64.5667,143.2,4.55,91,100,7.92,overcast clouds,2021-04-04 23:16:22
174,Khani,GE,41.9563,42.9566,53.6,76,75,2.3,broken clouds,2021-04-04 23:16:22
175,Airai,TL,-8.9266,125.4092,60.8,94,100,3.15,light rain,2021-04-04 23:16:22
176,Savalou,BJ,7.9281,1.9756,82.2,70,22,9.06,few clouds,2021-04-04 23:16:23
177,Antofagasta,CL,-23.65,-70.4,66.2,72,0,8.05,clear sky,2021-04-04 23:16:24
178,Faanui,PF,-16.4833,-151.75,82.02,74,19,10.56,light rain,2021-04-04 23:16:24
179,Saint Anthony,US,45.0205,-93.218,77.0,19,1,8.05,clear sky,2021-04-04 23:16:25
180,Isangel,VU,-19.55,169.2667,80.6,74,75,16.11,broken clouds,2021-04-04 23:16:25
181,Itaituba,BR,-4.2761,-55.9836,78.48,84,98,2.37,overcast clouds,2021-04-04 23:16:26
182,Turukhansk,RU,65.8167,87.9833,28.83,97,100,11.72,snow,2021-04-04 23:16:26
183,Upernavik,GL,72.7868,-56.1549,-14.53,94,34,8.23,scattered clouds,2021-04-04 23:16:26
184,Najran,SA,17.4924,44.1277,66.2,26,47,3.11,dust,2021-04-04 23:16:27
185,Samarai,PG,-10.6167,150.6667,84.13,75,57,10.04,broken clouds,2021-04-04 23:16:27
186,Havre-Saint-Pierre,CA,50.2334,-63.5986,39.2,93,40,11.5,scattered clouds,2021-04-04 23:16:27
187,Mogapi,BW,-22.323,27.8349,62.04,83,0,4.32,clear sky,2021-04-04 23:16:28
188,Muscat,OM,23.6139,58.5922,82.4,36,0,3.44,clear sky,2021-04-04 23:16:28
189,Pacific Grove,US,36.6177,-121.9166,59.0,62,1,10.36,clear sky,2021-04-04 23:16:29
190,Kerteminde,DK,55.449,10.6577,43.0,79,100,29.64,overcast clouds,2021-04-04 23:16:29
191,Te Anau,NZ,-45.4167,167.7167,54.41,79,95,7.29,overcast clouds,2021-04-04 23:16:29
192,Kindersley,CA,51.4668,-109.1682,51.8,40,75,25.32,broken clouds,2021-04-04 23:16:30
193,North Bend,US,43.4065,-124.2243,59.0,62,1,27.63,clear sky,2021-04-04 23:16:30
194,Souillac,MU,-20.5167,57.5167,80.01,75,36,5.99,scattered clouds,2021-04-04 23:16:31
195,Itapirapua,BR,-15.8233,-50.6133,76.84,75,77,4.56,broken clouds,2021-04-04 23:16:31
196,Belyy Yar,RU,53.6039,91.3903,23.0,86,30,2.24,smoke,2021-04-04 23:16:32
197,Hadrut,AZ,39.52,47.0318,49.75,54,0,5.93,clear sky,2021-04-04 23:16:32
198,Severo-Kurilsk,RU,50.6789,156.125,30.18,79,95,14.29,overcast clouds,2021-04-04 23:16:33
199,Okhotsk,RU,59.3833,143.3,21.69,91,100,3.71,overcast clouds,2021-04-04 23:16:33
200,Saquarema,BR,-22.92,-42.5103,78.8,78,40,10.36,scattered clouds,2021-04-04 23:16:33
201,Iralaya,HN,15.0,-83.2333,73.4,94,90,10.36,light intensity drizzle,2021-04-04 23:16:34
202,Sambava,MG,-14.2667,50.1667,75.78,91,96,6.62,overcast clouds,2021-04-04 23:16:34
203,Marawi,PH,7.9986,124.2928,70.32,90,100,1.41,overcast clouds,2021-04-04 23:16:35
204,Meulaboh,ID,4.1363,96.1285,75.94,88,100,3.33,overcast clouds,2021-04-04 23:16:35
205,Mian Channun,PK,30.44,72.3543,73.33,21,90,9.71,overcast clouds,2021-04-04 23:16:36
206,Partizanskoye,RU,55.5006,94.39,33.66,91,100,4.56,overcast clouds,2021-04-04 23:16:36
207,Yura,PE,-16.2522,-71.6797,60.8,72,75,1.14,broken clouds,2021-04-04 23:16:37
208,Abu Kamal,SY,34.4506,40.9171,62.64,38,0,7.14,clear sky,2021-04-04 23:16:37
209,Fort Nelson,CA,58.8053,-122.7002,48.2,25,40,5.75,scattered clouds,2021-04-04 23:16:38
210,Xixiang,CN,35.1628,112.865,48.61,48,99,3.13,overcast clouds,2021-04-04 23:16:38
211,Puerto Princesa,PH,9.7392,118.7353,77.0,83,20,6.91,few clouds,2021-04-04 23:16:39
212,High Level,CA,58.5169,-117.136,42.8,36,40,6.91,scattered clouds,2021-04-04 23:16:39
213,Zhezkazgan,KZ,47.8043,67.7144,37.22,97,100,9.86,light rain,2021-04-04 23:16:40
214,Bredasdorp,ZA,-34.5322,20.0403,62.6,94,100,6.91,light rain,2021-04-04 23:16:40
215,Lagoa,PT,39.05,-27.9833,60.01,83,86,15.75,overcast clouds,2021-04-04 23:16:40
216,Henties Bay,NA,-22.116,14.2845,68.18,75,15,8.25,few clouds,2021-04-04 23:16:41
217,Tuzla,BA,44.5428,18.6694,32.0,100,20,1.14,few clouds,2021-04-04 23:16:41
218,Aksarka,RU,66.5606,67.7975,27.9,98,100,6.69,light snow,2021-04-04 23:16:42
219,Haines Junction,CA,60.7522,-137.5108,41.0,45,100,11.5,overcast clouds,2021-04-04 23:16:43
220,Puerto Del Rosario,ES,28.5004,-13.8627,64.4,68,0,8.05,clear sky,2021-04-04 23:16:31
221,The Valley,AI,18.217,-63.0578,78.8,73,40,8.05,scattered clouds,2021-04-04 23:16:43
222,Kizhinga,RU,51.8462,109.9097,26.64,88,26,7.02,scattered clouds,2021-04-04 23:16:44
223,North Myrtle Beach,US,33.816,-78.68,62.01,63,1,17.27,clear sky,2021-04-04 23:16:44
224,Labuhan,ID,-6.8844,112.2051,77.61,85,100,6.26,overcast clouds,2021-04-04 23:16:44
225,Dingle,PH,10.9995,122.6711,77.94,79,92,7.38,overcast clouds,2021-04-04 23:16:45
226,Kidal,ML,18.4411,1.4078,81.43,6,0,9.06,clear sky,2021-04-04 23:16:45
227,Pontes E Lacerda,BR,-15.2261,-59.3353,77.09,79,44,2.77,scattered clouds,2021-04-04 23:16:45
228,Salinopolis,BR,-0.6136,-47.3561,78.17,88,87,10.38,heavy intensity rain,2021-04-04 23:16:46
229,Ostrovnoy,RU,68.0531,39.5131,33.42,91,100,16.62,overcast clouds,2021-04-04 23:16:46
230,Olga,RU,43.7444,135.2892,41.47,40,0,2.42,clear sky,2021-04-04 23:16:47
231,Xining,CN,36.6167,101.7667,33.13,61,18,1.92,few clouds,2021-04-04 23:16:47
232,Vao,NC,-22.6667,167.4833,76.17,62,3,19.69,clear sky,2021-04-04 23:16:47
233,Ixtapa,MX,20.7,-105.2,78.8,73,1,10.36,clear sky,2021-04-04 23:16:48
234,Homer,US,59.6425,-151.5483,37.4,87,90,19.57,overcast clouds,2021-04-04 23:16:48
235,Cherskiy,RU,68.75,161.3,-1.46,90,57,0.31,broken clouds,2021-04-04 23:16:49
236,Agadir,MA,30.4202,-9.5982,60.8,82,0,6.15,clear sky,2021-04-04 23:16:49
237,Butaritari,KI,3.0707,172.7902,82.35,78,84,15.59,broken clouds,2021-04-04 23:16:50
238,Narsaq,GL,60.9167,-46.05,3.2,100,90,5.26,overcast clouds,2021-04-04 23:16:51
239,Torbay,CA,47.6666,-52.7314,39.0,100,90,13.8,fog,2021-04-04 23:16:51
240,Touros,BR,-5.1989,-35.4608,78.8,83,20,5.75,few clouds,2021-04-04 23:16:52
241,Karratha,AU,-20.7377,116.8463,81.66,43,6,6.35,clear sky,2021-04-04 23:16:52
242,Ust-Kulom,RU,61.6864,53.6902,13.86,99,83,2.8,broken clouds,2021-04-04 23:16:53
243,Batsfjord,NO,70.6345,29.7185,35.53,90,100,9.46,overcast clouds,2021-04-04 23:16:53
244,Lompoc,US,34.6391,-120.4579,62.6,55,76,14.97,broken clouds,2021-04-04 23:12:00
245,Verkhnevilyuysk,RU,63.4453,120.3167,-10.68,98,99,3.8,overcast clouds,2021-04-04 23:16:54
246,Tengushevo,RU,54.7686,42.7189,28.56,97,62,5.57,broken clouds,2021-04-04 23:16:54
247,Half Moon Bay,US,37.4636,-122.4286,60.01,66,1,12.66,clear sky,2021-04-04 23:16:55
248,Inhambane,MZ,-23.865,35.3833,68.25,75,0,4.76,clear sky,2021-04-04 23:16:56
249,Comodoro Rivadavia,AR,-45.8667,-67.5,78.8,27,0,3.44,clear sky,2021-04-04 23:13:21
250,Khuzdar,PK,27.7384,66.6434,70.12,33,12,5.97,few clouds,2021-04-04 23:16:56
251,Tarakan,ID,3.3,117.6333,80.11,78,97,6.08,light rain,2021-04-04 23:16:57
252,Tynset,NO,62.2759,10.7824,21.2,73,40,13.8,light snow,2021-04-04 23:16:58
253,Satana,IN,20.5833,74.2,76.93,43,5,6.73,clear sky,2021-04-04 23:16:58
254,Veraval,IN,20.9,70.3667,77.43,79,0,8.1,clear sky,2021-04-04 23:16:59
255,Bengkulu,ID,-3.8004,102.2655,76.44,83,100,8.5,overcast clouds,2021-04-04 23:16:59
256,Miles City,US,46.4083,-105.8406,75.2,12,1,12.66,clear sky,2021-04-04 23:16:59
257,Lipin Bor,RU,60.2622,37.9763,32.16,94,100,11.68,light snow,2021-04-04 23:17:00
258,Belmonte,BR,-15.8631,-38.8828,75.2,88,90,8.05,overcast clouds,2021-04-04 23:17:01
259,Guadalupe Y Calvo,MX,26.1,-106.9667,72.95,10,0,12.21,clear sky,2021-04-04 23:17:01
260,Zheleznodorozhnyy,RU,55.7503,38.0042,35.6,64,0,4.47,clear sky,2021-04-04 23:17:02
261,Bonnyville,CA,54.2668,-110.735,44.6,61,75,17.27,broken clouds,2021-04-04 23:15:19
262,Champerico,GT,14.3,-91.9167,86.0,66,75,6.91,broken clouds,2021-04-04 23:17:02
263,Kushiro,JP,42.975,144.3747,35.6,64,75,11.5,broken clouds,2021-04-04 23:17:03
264,Batagay,RU,67.6333,134.6333,-8.46,93,100,3.53,overcast clouds,2021-04-04 23:17:04
265,Grindavik,IS,63.8424,-22.4338,17.6,57,75,14.97,broken clouds,2021-04-04 23:17:04
266,Reconquista,AR,-29.15,-59.65,74.26,56,1,2.39,clear sky,2021-04-04 23:17:04
267,Nelson Bay,AU,-32.7167,152.15,73.99,100,40,5.75,scattered clouds,2021-04-04 23:17:05
268,Broome,US,42.2506,-75.833,48.2,40,1,14.97,clear sky,2021-04-04 23:17:05
269,Namatanai,PG,-3.6667,152.4333,81.43,77,91,3.18,overcast clouds,2021-04-04 23:17:06
270,Galle,LK,6.0367,80.217,78.51,80,100,7.87,overcast clouds,2021-04-04 23:17:06
271,Dongsheng,CN,39.8161,109.9776,38.61,69,100,14.03,moderate rain,2021-04-04 23:17:07
272,Danane,CI,7.2596,-8.155,70.66,94,48,0.94,scattered clouds,2021-04-04 23:17:07
273,Hurricane,US,37.1753,-113.2899,88.0,7,1,9.22,clear sky,2021-04-04 23:17:08
274,Smithers,CA,54.7804,-127.1743,42.8,52,20,18.41,few clouds,2021-04-04 23:17:08
275,Corn Island,NI,12.1694,-83.0418,80.56,75,48,17.25,scattered clouds,2021-04-04 23:17:09
276,Kinablangan,PH,7.6947,126.5503,79.09,81,100,5.37,overcast clouds,2021-04-04 23:17:09
277,Sola,VU,-13.8833,167.55,78.8,94,90,16.22,overcast clouds,2021-04-04 23:17:10
278,Pochutla,MX,15.7432,-96.4661,88.0,42,20,7.45,few clouds,2021-04-04 23:17:10
279,Solnechnyy,RU,50.7214,136.6319,33.87,45,19,4.59,few clouds,2021-04-04 23:17:10
280,Ahipara,NZ,-35.1667,173.1667,68.14,63,85,5.46,overcast clouds,2021-04-04 23:17:11
281,Soto La Marina,MX,23.7667,-98.2167,75.99,66,95,10.0,overcast clouds,2021-04-04 23:17:11
282,Rocha,UY,-34.4833,-54.3333,64.67,96,21,7.92,few clouds,2021-04-04 23:17:11
283,Pangnirtung,CA,66.1451,-65.7125,0.61,87,44,5.91,scattered clouds,2021-04-04 23:17:12
284,Olinda,BR,-8.0089,-34.8553,80.6,69,75,9.22,broken clouds,2021-04-04 23:17:12
285,Ponta Delgada,PT,37.7333,-25.6667,60.8,94,75,8.05,broken clouds,2021-04-04 23:17:13
286,Guaymas,MX,27.9333,-110.9,102.0,25,1,13.8,clear sky,2021-04-04 23:16:20
287,Pyinmana,MM,19.7333,96.2167,71.37,77,100,2.35,overcast clouds,2021-04-04 23:17:13
288,Bethel,US,41.3712,-73.414,57.2,30,1,8.05,clear sky,2021-04-04 23:17:13
289,San Francisco,US,37.7749,-122.4194,59.0,55,75,23.02,broken clouds,2021-04-04 23:14:58
290,Port Macquarie,AU,-31.4333,152.9167,73.4,73,100,4.61,overcast clouds,2021-04-04 23:17:14
291,Hervey Bay,AU,-25.2986,152.8535,73.99,98,100,5.99,overcast clouds,2021-04-04 23:17:14
292,Oistins,BB,13.0667,-59.5333,78.8,65,40,12.66,scattered clouds,2021-04-04 23:17:15
293,Goba,ET,7.0167,39.9833,50.85,79,30,4.23,scattered clouds,2021-04-04 23:17:15
294,Davila,PH,18.4726,120.5763,77.0,83,20,2.3,haze,2021-04-04 23:17:15
295,Port-Gentil,GA,-0.7193,8.7815,82.4,89,20,8.05,light rain,2021-04-04 23:17:16
296,Peniche,PT,39.3558,-9.3811,55.0,90,0,8.61,clear sky,2021-04-04 23:17:16
297,Pevek,RU,69.7008,170.3133,-7.89,92,95,8.66,overcast clouds,2021-04-04 23:17:16
298,Salekhard,RU,66.53,66.6019,24.03,96,100,8.12,overcast clouds,2021-04-04 23:16:30
299,Saskylakh,RU,71.9167,114.0833,-22.5,99,23,4.74,few clouds,2021-04-04 23:17:17
300,Sumbe,AO,-11.2061,13.8437,79.23,83,97,5.21,overcast clouds,2021-04-04 23:17:17
301,Sanlucar De Barrameda,ES,36.7781,-6.3515,62.6,82,75,5.75,broken clouds,2021-04-04 23:17:18
302,Mount Isa,AU,-20.7333,139.5,75.2,69,90,8.05,overcast clouds,2021-04-04 23:17:18
303,Forest,US,37.3638,-79.2897,71.6,24,1,5.75,clear sky,2021-04-04 23:17:19
304,Hofn,IS,64.2539,-15.2082,18.0,58,29,22.97,scattered clouds,2021-04-04 23:17:19
305,Mayo,US,38.8876,-76.5119,68.0,30,1,5.75,clear sky,2021-04-04 23:17:19
306,Charagua,BO,-19.8,-63.2167,73.4,83,75,5.08,broken clouds,2021-04-04 23:17:20
307,Corrente,BR,-3.7367,-43.3394,74.53,95,100,4.5,overcast clouds,2021-04-04 23:17:20
308,Emerald,AU,-23.5333,148.1667,71.6,94,100,11.5,light rain,2021-04-04 23:17:21
309,Pisco,PE,-13.7,-76.2167,73.4,83,0,6.91,clear sky,2021-04-04 23:17:21
310,Evanston,US,42.0411,-87.6901,75.2,23,40,11.5,scattered clouds,2021-04-04 23:16:40
311,Masumbwe,TZ,-3.6333,32.1833,63.77,95,93,3.13,light rain,2021-04-04 23:17:22
312,Pitimbu,BR,-7.4706,-34.8086,78.8,94,20,5.75,few clouds,2021-04-04 23:17:22
313,Mizdah,LY,31.4451,12.9801,69.12,38,98,13.51,overcast clouds,2021-04-04 23:17:23
314,Muroto,JP,33.2833,134.15,57.2,62,75,25.32,broken clouds,2021-04-04 23:17:23
315,Pedernales,DO,18.0384,-71.744,78.58,74,36,3.49,scattered clouds,2021-04-04 23:17:24
316,Bubaque,GW,11.2833,-15.8333,75.76,74,51,20.04,broken clouds,2021-04-04 23:17:24
317,Bela Vista,BR,-22.1089,-56.5211,87.03,34,93,5.73,overcast clouds,2021-04-04 23:17:25
318,San Cristobal,VE,7.7669,-72.225,80.6,74,40,4.61,scattered clouds,2021-04-04 23:17:25
319,Mbini,GQ,1.574,9.6134,80.26,86,100,6.8,overcast clouds,2021-04-04 23:17:25
320,Abu Dhabi,AE,24.4667,54.3667,73.4,68,0,10.36,clear sky,2021-04-04 23:12:39
321,Moyale,KE,3.5167,39.0584,68.63,81,92,3.53,light rain,2021-04-04 23:17:26
322,Wagar,SD,16.1525,36.2032,74.89,33,1,15.32,clear sky,2021-04-04 23:17:26
323,Kahului,US,20.8947,-156.47,75.2,83,40,18.41,light rain,2021-04-04 23:17:27
324,Rio Gallegos,AR,-51.6226,-69.2181,42.8,70,20,10.36,few clouds,2021-04-04 23:17:03
325,Oranjemund,NA,-28.55,16.4333,61.72,95,23,5.03,few clouds,2021-04-04 23:17:27
326,Chalmette,US,29.9427,-89.9634,71.6,40,1,6.91,clear sky,2021-04-04 23:17:27
327,Waingapu,ID,-9.6567,120.2641,76.3,88,100,7.74,light rain,2021-04-04 23:17:28
328,Douglas,US,41.3,-96.167,87.8,19,1,10.36,clear sky,2021-04-04 23:15:41
329,Rio Grande,BR,-32.035,-52.0986,72.0,85,1,3.0,clear sky,2021-04-04 23:17:03
330,Zhangye,CN,38.9342,100.4517,44.29,34,0,10.31,clear sky,2021-04-04 23:15:14
331,Rafsanjan,IR,30.4067,55.9939,54.0,17,26,6.4,scattered clouds,2021-04-04 23:17:29
332,Ekhabi,RU,53.5102,142.9671,16.25,74,5,10.22,clear sky,2021-04-04 23:17:29
333,Barao De Melgaco,BR,-16.1944,-55.9675,75.2,88,75,1.14,heavy intensity rain,2021-04-04 23:17:29
334,Tartus,SY,34.889,35.8866,50.0,87,0,4.61,clear sky,2021-04-04 23:17:30
335,Atar,MR,20.5169,-13.0499,83.41,12,64,9.53,broken clouds,2021-04-04 23:17:30
336,Aguas Formosas,BR,-17.0822,-40.9358,70.14,97,68,3.42,broken clouds,2021-04-04 23:17:31
337,Wanning,CN,18.8003,110.3967,74.77,91,7,5.12,clear sky,2021-04-04 23:17:31
338,Iskateley,RU,67.6803,53.1512,12.58,93,26,8.32,scattered clouds,2021-04-04 23:17:32
339,Port Hawkesbury,CA,45.6169,-61.3485,39.2,100,90,8.05,overcast clouds,2021-04-04 23:17:32
340,Cowansville,CA,45.2001,-72.7491,51.8,37,56,3.44,broken clouds,2021-04-04 23:16:34
341,Salinas,US,36.6777,-121.6555,60.8,55,20,13.8,few clouds,2021-04-04 23:17:32
342,Macamic,CA,48.7502,-78.9996,48.2,37,75,6.91,broken clouds,2021-04-04 23:17:33
343,Makinsk,KZ,52.6292,70.4169,32.32,91,100,4.56,overcast clouds,2021-04-04 23:17:34
344,Quincy,US,42.2529,-71.0023,57.2,26,1,12.66,clear sky,2021-04-04 23:15:47
345,Novyy Urgal,RU,51.0736,132.5642,26.8,65,52,3.47,broken clouds,2021-04-04 23:17:34
346,Kenai,US,60.5544,-151.2583,42.8,75,1,29.93,clear sky,2021-04-04 23:17:34
347,Coquimbo,CL,-29.9533,-71.3436,62.6,63,20,4.61,few clouds,2021-04-04 23:17:35
348,Maumere,ID,-8.6199,122.2111,78.08,83,100,5.23,light rain,2021-04-04 23:13:18
349,Ancud,CL,-41.8697,-73.8203,59.0,88,0,8.05,clear sky,2021-04-04 23:17:36
350,Eluru,IN,16.7,81.1,78.28,93,74,4.59,broken clouds,2021-04-04 23:17:36
351,Laguna,US,38.421,-121.4238,69.01,42,1,4.61,clear sky,2021-04-04 23:17:07
352,Boa Vista,BR,2.8197,-60.6733,78.8,83,90,8.05,heavy intensity rain,2021-04-04 23:15:06
353,Gurupi,BR,-11.7292,-49.0686,79.3,72,99,4.27,overcast clouds,2021-04-04 23:17:37
354,Hope,US,33.6671,-93.5916,75.2,41,1,5.75,clear sky,2021-04-04 23:17:37
355,Namibe,AO,-15.1961,12.1522,78.96,81,75,6.33,broken clouds,2021-04-04 23:17:38
356,Camopi,GF,3.1655,-52.3158,74.07,98,100,3.44,light rain,2021-04-04 23:17:38
357,Itoman,JP,26.1247,127.6694,66.2,68,75,20.71,broken clouds,2021-04-04 23:17:38
358,Betioky,MG,-23.7167,44.3833,65.8,87,47,3.11,scattered clouds,2021-04-04 23:17:39
359,Caravelas,BR,-17.7125,-39.2481,77.14,76,47,7.43,scattered clouds,2021-04-04 23:17:39
360,Norman Wells,CA,65.282,-126.8329,28.4,50,75,10.36,broken clouds,2021-04-04 23:17:40
361,Sendhwa,IN,21.6833,75.1,78.57,33,0,4.25,clear sky,2021-04-04 23:17:40
362,Lobito,AO,-12.3481,13.5456,80.01,83,95,4.74,overcast clouds,2021-04-04 23:17:41
363,Caluquembe,AO,-13.7833,14.6833,64.53,68,99,3.06,overcast clouds,2021-04-04 23:17:42
364,Owando,CG,-0.4819,15.8999,73.58,91,93,2.19,overcast clouds,2021-04-04 23:17:42
365,Anadyr,RU,64.75,177.4833,0.0,65,0,6.71,clear sky,2021-04-04 23:15:59
366,Tabou,CI,4.423,-7.3528,78.98,89,41,5.41,scattered clouds,2021-04-04 23:17:43
367,Aden,YE,12.7794,45.0367,80.37,56,40,4.47,scattered clouds,2021-04-04 23:17:43
368,Katsuura,JP,35.1333,140.3,61.0,100,75,13.8,mist,2021-04-04 23:17:44
369,Meadow Lake,US,34.8014,-106.5436,82.99,11,40,8.05,scattered clouds,2021-04-04 23:17:44
370,Teknaf,BD,20.8624,92.3058,73.31,83,0,3.8,clear sky,2021-04-04 23:17:45
371,Lexington Park,US,38.2668,-76.4538,66.2,45,1,3.44,clear sky,2021-04-04 23:14:56
372,Ginir,ET,7.1333,40.7,58.93,73,2,1.9,light rain,2021-04-04 23:17:45
373,Gat,IL,31.61,34.7642,57.0,83,0,4.54,clear sky,2021-04-04 23:17:46
374,Kiunga,PG,-6.1219,141.2906,78.51,81,90,2.17,overcast clouds,2021-04-04 23:17:46
375,Carlsbad,US,33.1581,-117.3506,73.0,68,1,9.22,clear sky,2021-04-04 23:15:56
376,Bandarbeyla,SO,9.4942,50.8122,77.27,80,60,0.94,broken clouds,2021-04-04 23:17:46
377,Elko,US,41.0002,-115.5012,73.4,12,1,17.27,clear sky,2021-04-04 23:17:47
378,Port Lincoln,AU,-34.7333,135.8667,64.83,74,0,12.91,clear sky,2021-04-04 23:17:47
379,Yar-Sale,RU,66.8333,70.8333,32.31,99,100,7.25,light snow,2021-04-04 23:17:48
380,Sao Felix Do Xingu,BR,-6.6447,-51.995,75.29,92,53,2.01,broken clouds,2021-04-04 23:17:49
381,Murgab,TM,37.4966,61.9714,50.0,62,40,9.22,scattered clouds,2021-04-04 23:17:49
382,Wukari,NG,7.85,9.7833,85.8,13,73,2.59,broken clouds,2021-04-04 23:17:50
383,Ponta Do Sol,PT,32.6667,-17.1,55.99,62,74,3.0,broken clouds,2021-04-04 23:17:51
384,Kulhudhuffushi,MV,6.6221,73.07,82.51,71,24,12.3,few clouds,2021-04-04 23:14:47
385,San Felipe,VE,10.3399,-68.7425,73.81,92,100,5.39,overcast clouds,2021-04-04 23:17:51
386,Port Hedland,AU,-20.3167,118.5667,73.4,56,9,5.75,clear sky,2021-04-04 23:17:51
387,Zheshart,RU,62.0731,49.5733,18.03,96,36,3.4,scattered clouds,2021-04-04 23:17:52
388,Ankazoabo,MG,-22.2833,44.5167,64.47,96,3,2.91,clear sky,2021-04-04 23:17:53
389,Vanino,RU,49.0869,140.2543,37.26,40,34,2.17,scattered clouds,2021-04-04 23:17:53
390,Inuvik,CA,68.3499,-133.7218,19.4,68,100,8.05,light snow,2021-04-04 23:17:54
391,Sikeston,US,36.8767,-89.5879,71.6,33,1,8.05,clear sky,2021-04-04 23:17:54
392,Turayf,SA,31.6725,38.6637,55.4,44,0,4.61,clear sky,2021-04-04 23:17:55
393,Tooele,US,40.5308,-112.2983,75.0,23,1,12.66,clear sky,2021-04-04 23:17:55
394,Nauta,PE,-4.5061,-73.5757,73.11,99,100,2.17,overcast clouds,2021-04-04 23:17:56
395,Dunedin,NZ,-45.8742,170.5036,68.0,59,21,28.01,few clouds,2021-04-04 23:16:36
396,Puerto Suarez,BO,-18.95,-57.8,82.45,45,45,3.04,heavy intensity rain,2021-04-04 23:17:57
397,Kurilsk,RU,45.2333,147.8833,31.28,72,100,12.33,overcast clouds,2021-04-04 23:17:57
398,Mogadishu,SO,2.0371,45.3438,81.27,78,64,8.61,broken clouds,2021-04-04 23:17:58
399,Qaqortoq,GL,60.7167,-46.0333,3.2,100,90,4.9,overcast clouds,2021-04-04 23:17:58
400,Nianzishan,CN,47.5167,122.8833,44.69,33,47,7.99,scattered clouds,2021-04-04 23:17:59
401,Camabatela,AO,-8.1881,15.375,62.13,95,44,3.67,scattered clouds,2021-04-04 23:17:59
402,Menongue,AO,-14.6585,17.691,61.29,73,31,3.96,scattered clouds,2021-04-04 23:18:00
403,Wilmington,US,34.2257,-77.9447,66.2,37,1,13.8,clear sky,2021-04-04 23:17:36
404,Fortuna,US,40.5982,-124.1573,54.0,81,90,9.22,overcast clouds,2021-04-04 23:18:00
405,Harihar,IN,14.5167,75.8,71.91,85,17,8.52,few clouds,2021-04-04 23:18:01
406,Rairangpur,IN,22.2676,86.1751,72.07,51,0,2.89,clear sky,2021-04-04 23:18:02
407,Tura,IN,25.5198,90.2201,67.91,43,42,3.04,scattered clouds,2021-04-04 23:18:02
408,Antalaha,MG,-14.9003,50.2788,74.68,90,76,4.94,broken clouds,2021-04-04 23:18:03
409,Sisimiut,GL,66.9395,-53.6735,25.52,95,100,7.56,snow,2021-04-04 23:18:03
410,Kargil,IN,34.5667,76.1,32.16,88,100,5.57,light snow,2021-04-04 23:18:04
411,Susanville,US,40.4163,-120.653,71.6,12,1,16.11,clear sky,2021-04-04 23:17:20
412,Arkhipo-Osipovka,RU,44.37,38.52,48.83,96,99,9.15,overcast clouds,2021-04-04 23:18:04
413,Vostok,RU,46.4856,135.8833,33.78,49,5,5.19,clear sky,2021-04-04 23:18:05
414,Udachnyy,RU,66.4167,112.4,-20.83,100,99,5.03,overcast clouds,2021-04-04 23:16:44
415,Harper,LR,4.375,-7.7169,79.12,87,33,6.02,light rain,2021-04-04 23:18:05
416,Banda Aceh,ID,5.5577,95.3222,79.52,79,100,9.08,overcast clouds,2021-04-04 23:18:06
417,Cayenne,GF,4.9333,-52.3333,78.8,94,75,4.61,broken clouds,2021-04-04 23:18:06
418,Newtownards,GB,54.5924,-5.6909,42.8,75,75,10.36,light rain,2021-04-04 23:18:06
419,Sosnovo-Ozerskoye,RU,52.5249,111.5418,23.56,72,11,11.03,few clouds,2021-04-04 23:18:07
420,Mao,ES,39.8885,4.2658,55.4,94,0,9.22,clear sky,2021-04-04 23:18:07
421,Jiaojiang,CN,28.6803,121.4428,52.0,70,0,5.12,clear sky,2021-04-04 23:18:08
422,Arman,RU,59.7,150.1667,16.5,58,100,6.42,overcast clouds,2021-04-04 23:18:08
423,Huarmey,PE,-10.0681,-78.1522,73.54,75,30,8.75,scattered clouds,2021-04-04 23:18:09
424,Chardara,KZ,41.2547,67.9692,49.21,61,39,7.56,scattered clouds,2021-04-04 23:18:10
425,Seoul,KR,37.5683,126.9778,50.0,62,0,1.14,clear sky,2021-04-04 23:17:08
426,Flin Flon,CA,54.7682,-101.865,42.8,45,90,10.36,overcast clouds,2021-04-04 23:18:10
427,Hauterive,FR,46.0901,3.4459,41.0,65,0,0.18,clear sky,2021-04-04 23:18:11
428,Mount Gambier,AU,-37.8333,140.7667,60.8,63,67,10.36,broken clouds,2021-04-04 23:18:12
429,Ruangwa,TZ,-10.0667,38.9333,69.64,98,97,2.44,overcast clouds,2021-04-04 23:18:12
430,Tombouctou,ML,20.0,-3.0,86.07,7,42,7.05,scattered clouds,2021-04-04 23:16:00
431,Ola,RU,59.5833,151.2833,16.39,61,100,7.56,overcast clouds,2021-04-04 23:18:13
432,Izumo,JP,35.3667,132.7667,50.0,62,75,20.71,broken clouds,2021-04-04 23:18:14
433,Campoverde,PE,-8.4753,-74.8058,84.2,65,40,3.44,scattered clouds,2021-04-04 23:18:14
434,Richards Bay,ZA,-28.783,32.0377,64.18,82,0,3.71,clear sky,2021-04-04 23:18:14
435,Saint-Augustin,CA,51.226,-58.6502,35.65,99,100,17.87,overcast clouds,2021-04-04 23:18:15
436,Arlit,NE,18.7369,7.3853,78.94,7,0,9.31,clear sky,2021-04-04 23:18:15
437,Ibra,OM,22.6906,58.5334,75.56,42,9,3.36,clear sky,2021-04-04 23:18:16
438,Nyagan,RU,62.1406,65.3936,32.25,99,100,3.56,overcast clouds,2021-04-04 23:18:16
439,Kavieng,PG,-2.5744,150.7967,80.42,78,98,4.72,light rain,2021-04-04 23:16:07
440,Mirnyy,RU,62.5353,113.9611,-11.96,100,97,3.58,overcast clouds,2021-04-04 23:18:17
441,Havoysund,NO,70.9963,24.6622,26.6,93,100,9.22,overcast clouds,2021-04-04 23:18:12
442,Saint-Georges,GD,12.0564,-61.7485,78.35,79,53,13.0,broken clouds,2021-04-04 23:18:18
443,Hoima,UG,1.4356,31.3436,64.6,97,100,2.33,overcast clouds,2021-04-04 23:18:18
444,Dinguiraye,GN,11.3,-10.7167,85.42,16,99,4.23,overcast clouds,2021-04-04 23:18:19
445,Nevinnomyssk,RU,44.6267,41.9453,50.0,81,0,8.95,light rain,2021-04-04 23:18:19
446,Alta Floresta,BR,-9.8756,-56.0861,75.31,92,100,3.78,overcast clouds,2021-04-04 23:18:20
447,Manokwari,ID,-0.8667,134.0833,80.13,78,100,2.06,overcast clouds,2021-04-04 23:14:43
448,Maneadero,MX,31.7167,-116.5667,68.0,75,71,3.0,broken clouds,2021-04-04 23:18:20
449,Kandrian,PG,-6.2167,149.55,78.1,88,99,4.34,overcast clouds,2021-04-04 23:18:21
450,Cagliliog,PH,13.9016,123.2913,79.75,73,65,5.88,broken clouds,2021-04-04 23:18:22
451,Palaikastron,GR,35.2,26.25,64.0,61,100,15.32,overcast clouds,2021-04-04 23:18:22
452,Jasper,US,37.2001,-94.3502,75.2,41,1,12.66,clear sky,2021-04-04 23:18:22
453,Kaeo,NZ,-35.1,173.7833,69.01,70,84,1.99,broken clouds,2021-04-04 23:17:47
454,Lima,PE,-12.0432,-77.0282,75.2,64,0,8.05,clear sky,2021-04-04 23:16:41
455,Mattru,SL,7.6244,-11.8332,78.53,85,29,3.76,scattered clouds,2021-04-04 23:18:23
456,Broken Hill,AU,-31.95,141.4333,66.2,63,0,13.8,clear sky,2021-04-04 23:18:23
457,Mahebourg,MU,-20.4081,57.7,80.01,75,35,5.99,light rain,2021-04-04 23:18:24
458,Letlhakeng,BW,-24.0944,25.0298,66.42,69,0,6.53,clear sky,2021-04-04 23:18:24
459,Caxias,PT,38.7031,-9.2767,60.01,72,0,6.91,clear sky,2021-04-04 23:18:25
460,College,US,64.8569,-147.8028,33.01,55,75,16.11,broken clouds,2021-04-04 23:15:45
461,Chokwe,MZ,-24.5333,32.9833,65.5,81,0,2.73,clear sky,2021-04-04 23:18:25
462,Ca Mau,VN,9.1769,105.15,80.89,77,82,9.91,light rain,2021-04-04 23:18:26
463,Manga,BF,11.6636,-1.0731,87.53,10,1,6.35,clear sky,2021-04-04 23:18:26
464,West Wendover,US,40.7391,-114.0733,78.8,9,1,10.36,clear sky,2021-04-04 23:18:26
465,Rio Rancho,US,35.2334,-106.6645,81.0,11,75,8.05,broken clouds,2021-04-04 23:18:27
466,Chapais,CA,49.7834,-74.8492,39.2,60,90,5.75,overcast clouds,2021-04-04 23:18:27
467,Beringovskiy,RU,63.05,179.3167,5.43,77,45,5.77,scattered clouds,2021-04-04 23:18:27
468,Chernyshevskiy,RU,63.0128,112.4714,-19.03,99,59,3.33,broken clouds,2021-04-04 23:18:28
469,Ukiah,US,39.1502,-123.2078,69.8,37,1,4.61,clear sky,2021-04-04 23:18:29
470,Pinehurst,US,35.1954,-79.4695,71.6,20,1,4.61,clear sky,2021-04-04 23:16:19
471,Shache,CN,38.4167,77.2406,48.11,45,99,5.21,overcast clouds,2021-04-04 23:18:29
472,Mitchelstown,IE,52.2658,-8.2681,46.99,81,75,13.8,broken clouds,2021-04-04 23:18:30
473,Chissamba,AO,-12.1667,17.3333,63.77,80,75,1.01,broken clouds,2021-04-04 23:18:30
474,Inongo,CD,-1.95,18.2667,72.19,93,99,5.88,moderate rain,2021-04-04 23:18:30
475,Kamaishi,JP,39.2667,141.8833,42.8,75,75,17.27,broken clouds,2021-04-04 23:18:31
476,Moose Factory,CA,51.2585,-80.6094,32.0,86,1,9.22,clear sky,2021-04-04 23:18:32
477,Harda,IN,22.3333,77.1,80.82,12,0,3.31,clear sky,2021-04-04 23:18:32
478,Baker City,US,44.7749,-117.8344,62.6,29,1,16.11,clear sky,2021-04-04 23:18:32
479,Hangu,CN,39.2489,117.7892,50.0,66,75,4.47,mist,2021-04-04 23:18:33
480,Bassano,CA,50.7834,-112.4685,42.8,75,100,13.8,overcast clouds,2021-04-04 23:18:33
481,Impfondo,CG,1.6381,18.0667,74.98,81,72,3.8,broken clouds,2021-04-04 23:18:33
482,Gubden,RU,42.5681,47.5658,44.6,87,1,6.71,clear sky,2021-04-04 23:18:34
483,Maceio,BR,-9.6658,-35.7353,77.0,94,20,2.3,few clouds,2021-04-04 23:18:34
484,Sydney,AU,-33.8679,151.2073,75.0,83,20,14.97,few clouds,2021-04-04 23:18:35
485,Mawlaik,MM,23.6333,94.4167,67.93,75,8,1.28,clear sky,2021-04-04 23:18:35
486,Mecca,SA,21.4267,39.8261,76.06,39,100,6.29,overcast clouds,2021-04-04 23:18:36
487,Jawhar,SO,2.7809,45.5005,78.62,83,81,5.39,broken clouds,2021-04-04 23:18:36
488,Sao Filipe,CV,14.8961,-24.4956,73.13,75,6,6.51,clear sky,2021-04-04 23:17:27
489,Sabha,LY,27.0377,14.4283,73.36,10,26,14.45,scattered clouds,2021-04-04 23:18:24
490,Santa Maria,BR,-29.6842,-53.8069,75.2,73,20,5.75,few clouds,2021-04-04 23:18:37
491,Nome,US,64.5011,-165.4064,3.99,71,1,18.41,clear sky,2021-04-04 23:18:37
492,Abha,SA,18.2164,42.5053,62.6,51,0,4.38,clear sky,2021-04-04 23:18:38
493,Perth,AU,-31.9333,115.8333,64.99,94,75,4.61,broken clouds,2021-04-04 23:15:06
494,Shestakovo,RU,56.4915,103.96,24.71,97,100,2.82,overcast clouds,2021-04-04 23:18:38
495,Batemans Bay,AU,-35.7167,150.1833,69.01,85,93,1.01,overcast clouds,2021-04-04 23:18:39
496,Skibbereen,IE,51.55,-9.2667,44.6,81,75,13.8,broken clouds,2021-04-04 23:18:40
497,Malakal,SS,9.5334,31.6605,87.39,19,72,7.78,broken clouds,2021-04-04 23:18:40
498,Mundo Nuevo,MX,18.7,-95.5,75.54,57,5,13.47,clear sky,2021-04-04 23:18:41
499,Lubbock,US,33.6001,-101.8338,73.4,40,20,14.97,few clouds,2021-04-04 23:18:41
500,Yarega,RU,63.4354,53.5765,18.36,97,23,2.66,few clouds,2021-04-04 23:18:41
501,Hurfeish,IL,33.0171,35.3484,48.06,44,0,3.91,clear sky,2021-04-04 23:18:42
502,Eufaula,US,31.8913,-85.1455,73.4,25,1,5.75,clear sky,2021-04-04 23:18:43
503,Cherepovets,RU,59.1333,37.9,31.46,93,100,10.31,snow,2021-04-04 23:18:43
504,Portobelo,PA,9.55,-79.65,82.0,88,78,21.99,broken clouds,2021-04-04 23:18:44
505,Beira,MZ,-19.8436,34.8389,74.01,86,7,1.7,light rain,2021-04-04 23:17:52
506,Poum,NC,-20.2333,164.0167,79.48,69,86,25.97,overcast clouds,2021-04-04 23:18:44
507,Clyde River,CA,70.4692,-68.5914,-13.0,77,1,9.22,clear sky,2021-04-04 23:18:45
508,Jalu,LY,29.0331,21.5482,69.84,11,0,11.32,clear sky,2021-04-04 23:18:45
509,Vila Velha,BR,-20.3297,-40.2925,77.0,73,20,9.22,few clouds,2021-04-04 23:18:45
510,Florida,US,28.7505,-82.5001,69.01,52,1,5.75,clear sky,2021-04-04 23:16:19
511,Guangyuan,CN,32.442,105.823,43.0,99,90,1.01,overcast clouds,2021-04-04 23:18:46
512,Chimore,BO,-16.9833,-65.1333,70.9,97,99,1.32,overcast clouds,2021-04-04 23:18:46
513,Novyy Yarychiv,UA,49.9044,24.3052,30.0,93,0,2.24,clear sky,2021-04-04 23:18:47
514,Provideniya,RU,64.3833,-173.3,6.8,61,0,4.47,clear sky,2021-04-04 23:18:47
515,Hirado,JP,33.3597,129.5531,55.4,62,75,21.85,broken clouds,2021-04-04 23:18:48
516,Santa Rosa,PH,14.3122,121.1114,81.0,78,90,5.75,overcast clouds,2021-04-04 23:18:48
517,Biak,ID,-0.9131,122.8766,78.8,80,99,4.38,overcast clouds,2021-04-04 23:18:49
518,Kaputa,ZM,-8.4689,29.6619,69.21,86,84,0.36,light rain,2021-04-04 23:18:49
519,Tilichiki,RU,60.4667,166.1,15.89,87,100,15.55,overcast clouds,2021-04-04 23:18:49
520,San Pedro Buenavista,MX,16.0833,-93.1167,82.4,44,1,18.41,clear sky,2021-04-04 23:18:50
521,Gediz,TR,39.0417,29.41,54.39,49,100,13.47,light rain,2021-04-04 23:18:50
522,Khorixas,NA,-20.3667,14.9667,78.12,40,36,4.56,scattered clouds,2021-04-04 23:18:51
523,Hvide Sande,DK,56.0045,8.1294,39.99,80,100,5.99,overcast clouds,2021-04-04 23:18:51
524,Sangar,RU,63.9242,127.4739,-14.21,98,100,2.44,overcast clouds,2021-04-04 23:18:52
525,Zhigansk,RU,66.7697,123.3711,-12.42,98,85,5.59,overcast clouds,2021-04-04 23:18:52
526,Letnyaya Stavka,RU,45.4306,43.4472,48.67,78,98,7.18,light rain,2021-04-04 23:18:53
527,Shitkino,RU,56.3703,98.3543,30.45,98,100,2.26,overcast clouds,2021-04-04 23:18:53
528,Soyo,AO,-6.1349,12.3689,80.1,80,99,4.72,overcast clouds,2021-04-04 23:16:07
529,Yuxia,CN,34.0615,108.6291,51.01,71,0,6.71,clear sky,2021-04-04 23:18:54
530,Acapulco,MX,16.8634,-99.8901,84.2,70,1,5.75,clear sky,2021-04-04 23:18:55
531,Russell,US,32.3502,-85.1999,73.4,25,1,4.21,clear sky,2021-04-04 23:15:20
532,Olafsvik,IS,64.8945,-23.7142,19.8,52,100,10.63,overcast clouds,2021-04-04 23:16:01
533,Paamiut,GL,61.994,-49.6678,35.76,79,92,20.58,overcast clouds,2021-04-04 23:18:55
534,Atasu,KZ,48.6814,71.6433,38.88,93,99,17.54,overcast clouds,2021-04-04 23:18:56
535,Ayan,RU,56.45,138.1667,15.42,74,28,8.39,scattered clouds,2021-04-04 23:15:47
536,Cosala,MX,24.4125,-106.6908,93.87,8,0,9.98,clear sky,2021-04-04 23:18:57
537,Onega,RU,63.9061,38.1404,33.12,98,100,9.62,light snow,2021-04-04 23:18:57
538,Roald,NO,62.5833,6.1333,30.2,59,40,13.8,light snow,2021-04-04 23:18:57
539,Las Vegas,US,36.175,-115.1372,90.0,4,1,6.91,clear sky,2021-04-04 23:18:58
540,Khunti,IN,23.0833,85.2833,70.77,10,0,2.42,clear sky,2021-04-04 23:18:58
541,Grand Gaube,MU,-20.0064,57.6608,80.01,75,10,5.99,light rain,2021-04-04 23:18:02
542,Asyut,EG,27.181,31.1837,62.6,45,0,10.36,clear sky,2021-04-04 23:18:59
543,Sorland,NO,67.667,12.6934,36.21,52,100,21.88,overcast clouds,2021-04-04 23:19:00
544,Marolambo,MG,-20.05,48.1167,68.22,98,39,2.33,scattered clouds,2021-04-04 23:19:00
545,Itapira,BR,-22.4361,-46.8217,72.0,62,79,1.99,broken clouds,2021-04-04 23:19:01
546,Taoudenni,ML,22.6783,-3.9836,85.82,6,82,10.25,broken clouds,2021-04-04 23:19:02
547,Xichang,CN,27.8964,102.2634,57.09,42,100,0.22,overcast clouds,2021-04-04 23:19:02
548,Dudinka,RU,69.4058,86.1778,13.41,92,100,10.58,overcast clouds,2021-04-04 23:14:06
549,San Miguel,SV,13.4833,-88.1833,102.2,25,20,2.3,few clouds,2021-04-04 23:19:03
550,Eyl,SO,7.9803,49.8164,79.16,77,19,5.46,few clouds,2021-04-04 23:19:03
551,Msanga,TZ,-6.05,36.0333,63.81,98,74,4.14,broken clouds,2021-04-04 23:19:04
552,Vung Tau,VN,10.346,107.0843,80.26,78,92,16.22,overcast clouds,2021-04-04 23:15:39
553,Cairns,AU,-16.9167,145.7667,79.0,83,90,9.22,overcast clouds,2021-04-04 23:19:04
554,Den Chai,TH,17.9837,100.0522,75.99,94,75,3.22,mist,2021-04-04 23:19:05
555,Soligalich,RU,59.0778,42.2864,29.52,89,73,7.87,broken clouds,2021-04-04 23:19:05
556,Hof,DE,50.3167,11.9167,35.01,76,7,8.01,clear sky,2021-04-04 23:19:05
557,Bosaso,SO,11.2842,49.1816,76.44,64,65,2.06,broken clouds,2021-04-04 23:18:30
558,Mildura,AU,-34.2,142.15,62.6,63,0,9.22,clear sky,2021-04-04 23:17:05
559,Buta,CD,2.7858,24.73,74.75,75,100,3.49,overcast clouds,2021-04-04 23:19:06
560,Yumen,CN,40.2833,97.2,39.38,64,79,5.79,broken clouds,2021-04-04 23:19:07
561,Churapcha,RU,62.0025,132.4325,-4.22,98,100,3.69,overcast clouds,2021-04-04 23:19:07
562,Purpe,RU,64.4803,76.6897,32.7,97,100,13.62,overcast clouds,2021-04-04 23:19:07
563,Aklavik,CA,68.2191,-135.0107,19.4,68,100,8.05,overcast clouds,2021-04-04 23:19:08
564,Manzanillo,CU,20.3433,-77.1167,77.95,48,22,19.13,few clouds,2021-04-04 23:19:08
565,Togur,RU,58.3631,82.8265,27.72,96,100,6.82,overcast clouds,2021-04-04 23:19:09
566,Ishigaki,JP,24.3448,124.1572,66.2,68,75,12.66,broken clouds,2021-04-04 23:19:09
567,Oktyabrskoye,RU,43.0645,44.7417,39.2,81,55,4.47,broken clouds,2021-04-04 23:19:09
568,Bodri,IN,23.1667,81.4333,71.53,9,0,3.06,clear sky,2021-04-04 23:19:10
569,Bafoulabe,ML,13.8065,-10.8321,92.3,10,18,3.6,few clouds,2021-04-04 23:19:10
570,Kita,ML,13.0349,-9.4895,88.9,7,100,2.51,overcast clouds,2021-04-04 23:19:11
571,Ambon,ID,-3.6954,128.1814,84.2,79,40,4.61,scattered clouds,2021-04-04 23:19:11
572,San Juan,AR,-31.5375,-68.5364,79.66,40,76,11.86,light rain,2021-04-04 23:14:13
573,Manhattan,US,40.7834,-73.9662,63.0,23,40,3.44,scattered clouds,2021-04-04 23:16:29
574,Mutuipe,BR,-13.2286,-39.5047,69.82,86,6,3.65,clear sky,2021-04-04 23:19:12
575,Nong Phai,TH,15.9903,101.0618,75.97,83,99,1.16,overcast clouds,2021-04-04 23:19:13
576,Hirara,JP,24.8,125.2833,66.2,68,75,14.97,broken clouds,2021-04-04 23:19:13
577,Nsanje,MW,-16.92,35.262,68.41,94,4,2.28,clear sky,2021-04-04 23:19:14
578,Hakui,JP,36.8833,136.7833,46.99,38,100,8.86,overcast clouds,2021-04-04 23:19:14
579,Vilyuysk,RU,63.7553,121.6247,-11.07,98,99,3.87,overcast clouds,2021-04-04 23:19:15
580,Gigmoto,PH,13.7796,124.39,81.16,69,91,6.67,overcast clouds,2021-04-04 23:19:15
581,Murray Bridge,AU,-35.1167,139.2667,60.01,76,5,8.93,clear sky,2021-04-04 23:19:16
582,Lugovoy,KZ,42.9472,72.7644,44.08,85,100,4.99,light rain,2021-04-04 23:19:17
583,Aksu,CN,41.1231,80.2644,45.21,47,98,4.83,overcast clouds,2021-04-04 23:20:33
584,Arcata,US,40.8665,-124.0828,55.0,81,90,12.66,overcast clouds,2021-04-04 23:20:33
585,Sabang,ID,5.8933,95.3214,82.62,73,100,12.68,overcast clouds,2021-04-04 23:20:34
586,Cabedelo,BR,-6.9811,-34.8339,78.8,94,20,5.75,few clouds,2021-04-04 23:20:34
587,Nouadhibou,MR,20.931,-17.0347,66.2,72,0,16.11,clear sky,2021-04-04 23:20:34
588,Moron,AR,-34.6534,-58.6198,73.0,73,0,4.0,clear sky,2021-04-04 23:16:41
589,Yuanping,CN,38.7153,112.7575,47.53,49,100,1.1,overcast clouds,2021-04-04 23:20:35
590,Shimoda,JP,34.6667,138.95,66.0,100,75,2.3,light rain,2021-04-04 23:20:35
591,Curup,ID,-3.4667,102.5333,66.9,93,100,1.99,overcast clouds,2021-04-04 23:20:36
592,Qena,EG,26.1615,32.7183,66.2,26,0,6.96,clear sky,2021-04-04 23:20:36
593,San Policarpo,PH,12.1791,125.5072,81.79,66,100,10.16,overcast clouds,2021-04-04 23:20:37
594,Mitsamiouli,KM,-11.3847,43.2844,81.86,75,40,7.07,scattered clouds,2021-04-04 23:20:38
595,Naze,JP,28.3667,129.4833,68.0,73,40,24.16,scattered clouds,2021-04-04 23:20:38
596,Bambous Virieux,MU,-20.3428,57.7575,80.01,75,41,5.99,light rain,2021-04-04 23:15:57
597,Krk,HR,45.0258,14.5731,41.0,65,0,4.61,clear sky,2021-04-04 23:20:39
598,Fairbanks,US,64.8378,-147.7164,33.01,59,75,20.71,broken clouds,2021-04-04 23:16:39
599,La Fria,VE,8.2203,-72.2439,80.6,74,40,4.61,scattered clouds,2021-04-04 23:20:40
600,Roebourne,AU,-20.7833,117.1333,81.75,39,7,6.64,clear sky,2021-04-04 23:20:40
601,Vredendal,ZA,-31.6683,18.5012,65.3,84,1,2.42,clear sky,2021-04-04 23:20:41
602,Portland,US,45.5234,-122.6762,57.99,30,75,10.36,broken clouds,2021-04-04 23:20:24
603,Taungdwingyi,MM,20.0167,95.55,72.45,70,100,1.97,overcast clouds,2021-04-04 23:20:41
604,Bonthe,SL,7.5264,-12.505,79.34,88,37,6.82,scattered clouds,2021-04-04 23:20:42
605,Calbiga,PH,11.6247,125.0164,77.18,77,84,1.61,broken clouds,2021-04-04 23:20:42
606,Fredericton,CA,45.9454,-66.6656,32.0,100,90,12.66,snow,2021-04-04 23:19:38
607,Jiutai,CN,44.1525,125.8328,44.6,29,0,13.42,clear sky,2021-04-04 23:20:43
608,Pemangkat,ID,1.1667,108.9667,76.03,88,98,4.03,overcast clouds,2021-04-04 23:20:44
609,Tecpan,GT,14.7623,-90.9947,71.01,63,75,23.02,broken clouds,2021-04-04 23:20:29
610,Songea,TZ,-10.6833,35.65,62.37,99,64,1.95,broken clouds,2021-04-04 23:20:44
611,Marystown,CA,47.1666,-55.1483,43.02,93,100,20.07,overcast clouds,2021-04-04 23:18:58
612,Brae,GB,60.3964,-1.353,28.4,64,75,34.52,light snow,2021-04-04 23:16:28
613,Turan,VN,16.0678,108.2208,73.4,94,20,2.3,few clouds,2021-04-04 23:20:45
614,Mariental,NA,-24.6333,17.9667,79.18,34,67,9.91,broken clouds,2021-04-04 23:20:45
615,Hobyo,SO,5.3505,48.5268,82.02,69,73,13.33,broken clouds,2021-04-04 23:20:45
616,Shitanjing,CN,39.2342,106.3439,40.21,88,93,8.08,overcast clouds,2021-04-04 23:20:46
617,Barcelos,PT,41.5388,-8.6151,60.01,76,0,2.3,clear sky,2021-04-04 23:20:46
618,Kansanshi,ZM,-12.0951,26.4273,59.14,96,28,4.14,scattered clouds,2021-04-04 23:20:46
619,Baculin,PH,7.4525,126.5842,80.06,77,99,8.39,overcast clouds,2021-04-04 23:20:47
620,Thunder Bay,CA,48.4001,-89.3168,46.0,61,40,16.11,scattered clouds,2021-04-04 23:18:03
621,Klyuchi,RU,52.2667,79.1667,25.47,80,83,6.8,broken clouds,2021-04-04 23:20:11
622,Alekseyevsk,RU,57.8406,108.3492,11.08,94,99,3.85,overcast clouds,2021-04-04 23:20:47
623,Poronaysk,RU,49.2167,143.1167,28.4,76,34,2.19,scattered clouds,2021-04-04 23:20:48
624,Chifeng,CN,42.2683,118.9636,44.55,25,73,5.84,broken clouds,2021-04-04 23:20:48
625,Bad Gandersheim,DE,51.8667,10.0333,37.99,83,85,1.01,overcast clouds,2021-04-04 23:20:49
626,Nago,JP,26.5881,127.9761,66.2,59,90,16.11,overcast clouds,2021-04-04 23:20:49
627,Colon,PA,9.3592,-79.9014,82.0,69,91,8.99,overcast clouds,2021-04-04 23:20:50
628,Valea Chioarului,RO,47.4333,23.4833,32.0,86,48,2.3,scattered clouds,2021-04-04 23:20:50
629,Evensk,RU,61.95,159.2333,14.58,54,100,26.53,overcast clouds,2021-04-04 23:20:17
630,Arjona,CO,10.2544,-75.3439,82.4,74,40,13.8,scattered clouds,2021-04-04 23:20:51
631,Shiggaon,IN,15.0,75.2333,71.55,80,10,4.27,clear sky,2021-04-04 23:19:14
632,Eston,CA,51.1501,-108.7514,57.99,40,75,25.32,broken clouds,2021-04-04 23:20:51
633,Atambua,ID,-9.1061,124.8925,73.06,89,100,8.66,moderate rain,2021-04-04 23:20:51
634,Kununurra,AU,-15.7667,128.7333,78.8,73,12,4.61,few clouds,2021-04-04 23:20:52
635,Rawson,AR,-43.3002,-65.1023,80.31,36,10,22.1,clear sky,2021-04-04 23:20:28
636,Kizukuri,JP,40.8061,140.3861,44.01,93,75,6.91,broken clouds,2021-04-04 23:20:53
637,Sioux Lookout,CA,50.1001,-91.917,53.6,32,75,9.22,broken clouds,2021-04-04 23:20:53
638,Saint-Louis,SN,16.3333,-15.0,89.67,13,95,11.27,overcast clouds,2021-04-04 23:20:54
639,Vestmannaeyjar,IS,63.4427,-20.2734,20.75,54,9,24.02,clear sky,2021-04-04 23:20:54
640,Kirov,RU,58.5966,49.6601,20.75,98,88,3.96,overcast clouds,2021-04-04 23:20:55
641,Berlevag,NO,70.8578,29.0864,35.71,94,100,11.32,overcast clouds,2021-04-04 23:19:49
642,Jiuquan,CN,39.7432,98.5174,41.16,65,53,7.07,broken clouds,2021-04-04 23:20:56
643,Komsomolskiy,UZ,40.4272,71.7189,48.2,76,75,3.78,broken clouds,2021-04-04 23:20:56
644,Anamur,TR,36.0751,32.8369,50.0,93,0,3.44,clear sky,2021-04-04 23:20:57
645,Pocone,BR,-16.2567,-56.6228,78.62,71,47,2.48,scattered clouds,2021-04-04 23:20:58
646,Goderich,CA,43.7501,-81.7165,46.4,57,26,4.61,scattered clouds,2021-04-04 23:20:58
647,Yanam,IN,16.7333,82.2167,76.39,95,69,3.31,broken clouds,2021-04-04 23:20:47
648,Wronki,PL,52.7105,16.3804,39.0,75,0,6.91,clear sky,2021-04-04 23:20:59
649,Zalesovo,RU,53.9939,84.7431,23.02,88,10,3.74,clear sky,2021-04-04 23:20:59
650,Alpinopolis,BR,-20.8636,-46.3881,69.1,73,100,5.7,overcast clouds,2021-04-04 23:20:59
651,Kutiyana,IN,21.6233,69.9817,76.89,77,0,5.46,clear sky,2021-04-04 23:21:00
652,Bhatkal,IN,13.9667,74.5667,78.19,81,57,6.87,broken clouds,2021-04-04 23:21:01
653,Lodwar,KE,3.1191,35.5973,83.95,53,100,3.83,light rain,2021-04-04 23:21:01
654,Bonavista,CA,48.6499,-53.1147,37.4,100,100,3.44,overcast clouds,2021-04-04 23:21:02
655,Boyolangu,ID,-8.1181,111.8935,75.47,89,100,0.94,overcast clouds,2021-04-04 23:21:02
656,Mae Sai,TH,20.4335,99.8762,69.8,100,75,4.61,mist,2021-04-04 23:21:03
657,Kamenka,RU,51.3223,42.7678,34.0,91,93,6.17,overcast clouds,2021-04-04 23:21:03
658,West Bay,KY,19.3667,-81.4167,78.8,65,75,17.27,broken clouds,2021-04-04 23:21:04
659,Baiyin,CN,36.5583,104.2081,39.99,100,49,4.47,mist,2021-04-04 23:21:04
660,Dhaka,BD,23.7104,90.4074,77.0,73,40,6.91,haze,2021-04-04 23:21:05
661,Stornoway,GB,58.2093,-6.3865,30.2,86,100,31.07,light snow,2021-04-04 23:21:05
662,Saint-Pierre,RE,-21.3393,55.4781,77.0,73,0,4.61,clear sky,2021-04-04 23:21:05
663,Zamora,EC,-4.0692,-78.9567,71.6,78,75,8.05,light rain,2021-04-04 23:21:06
664,Hecun,CN,36.5333,114.1111,49.35,46,75,3.71,broken clouds,2021-04-04 23:21:06
665,Matagami,CA,49.7502,-77.6328,37.4,70,1,4.61,clear sky,2021-04-04 23:16:21
666,Pimampiro,EC,0.4,-77.9667,62.29,86,96,4.68,light rain,2021-04-04 23:16:11
667,Dafeng,CN,23.4517,108.5881,61.03,84,98,4.14,overcast clouds,2021-04-04 23:21:07
668,Berbera,SO,10.4396,45.0143,77.31,70,13,0.6,few clouds,2021-04-04 23:21:07
669,Vidim,RU,56.4088,103.1106,25.75,96,100,2.68,overcast clouds,2021-04-04 23:21:07
670,Posse,BR,-14.0931,-46.3694,75.81,63,82,8.68,moderate rain,2021-04-04 23:21:08
671,Vanderhoof,CA,54.0166,-124.0198,45.66,41,1,7.7,clear sky,2021-04-04 23:21:08
672,Ornskoldsvik,SE,63.2909,18.7153,33.8,93,90,6.91,overcast clouds,2021-04-04 23:21:09
673,San Rafael,AR,-34.6177,-68.3301,75.47,46,100,8.79,overcast clouds,2021-04-04 23:20:14
674,Balabac,PH,7.9868,117.0645,81.95,72,100,11.36,overcast clouds,2021-04-04 23:21:10
675,Jumla,NP,29.2747,82.1838,42.4,25,55,4.5,broken clouds,2021-04-04 23:21:10
676,Petropavlovsk-Kamchatskiy,RU,53.0452,158.6483,35.6,60,75,4.47,broken clouds,2021-04-04 23:21:11
677,Urumqi,CN,43.801,87.6005,42.8,56,0,6.71,clear sky,2021-04-04 23:21:11
678,Bilma,NE,18.6853,12.9164,75.07,9,0,6.93,clear sky,2021-04-04 23:21:12
679,Santa Lucia,ES,27.9117,-15.5407,64.4,63,20,8.05,few clouds,2021-04-04 23:21:12
680,Malinyi,TZ,-8.9333,36.1333,71.35,95,76,1.1,light rain,2021-04-04 23:21:13
